[
  {
    "name": "半嶺水圳步道",
    "lat": 25.141390863264945,
    "lng": 121.53507806533705,
    "platform": "跟著領隊sky玩",
    "link": "https://taiwantour.net/banling-shuizhen/",
    "type": "健行",
    "city": "台北市",
    "District": "北投區",
    "google_map": "https://maps.app.goo.gl/WDz8XxGUiUkrPcmHA"
  },
  {
    "name": "開餵食堂",
    "lat": 25.051846087913216,
    "lng": 121.61535282697658,
    "platform": "Facebook",
    "link": "https://www.facebook.com/reel/1153654183472941",
    "type": "小吃",
    "city": "台北市",
    "District": "南港區",
    "google_map": "https://maps.app.goo.gl/8Dn1gWXJ1L17TkwUA"
  },
  {
    "name": "黛比鹹粥",
    "lat": 25.04332306383231,
    "lng": 121.44829985396707,
    "platform": "Facebook",
    "link": "https://www.facebook.com/reel/1077984924480910",
    "type": "小吃",
    "city": "新北市",
    "District": "新莊區",
    "google_map": "https://maps.app.goo.gl/uLVBDFAav8gQ54XD7"
  },
  {
    "name": "阿桂蛋餅",
    "lat": 25.070809766160192,
    "lng": 121.61278226930716,
    "platform": "Facebook",
    "link": "https://www.facebook.com/reel/1685181402126851",
    "type": "小吃",
    "city": "台北市",
    "District": "內湖區",
    "google_map": "https://maps.app.goo.gl/VR9uSEpNZ7JQXBWNA"
  },
  {
    "name": "円點紅豆餅",
    "lat": 25.069858976006806,
    "lng": 121.6136234846467,
    "platform": "Facebook",
    "link": "https://www.facebook.com/reel/1685181402126851",
    "type": "甜點 / 冰品",
    "city": "台北市",
    "District": "內湖區",
    "google_map": "https://maps.app.goo.gl/uUpi4RjmXsKYsTnKA"
  },
  {
    "name": "東湖阿水越南美食",
    "lat": 25.069765576170006,
    "lng": 121.613940767463,
    "platform": "Facebook",
    "link": "https://www.facebook.com/reel/1685181402126851",
    "type": "小吃",
    "city": "台北市",
    "District": "內湖區",
    "google_map": "https://maps.app.goo.gl/c1XwiSSCGH9UBv1V6"
  },
  {
    "name": "暖聚(無限期歇業)",
    "lat": 25.07053892898754,
    "lng": 121.61697285396768,
    "platform": "Facebook",
    "link": "https://www.facebook.com/reel/1685181402126851",
    "type": "小吃",
    "city": "台北市",
    "District": "內湖區",
    "google_map": "https://maps.app.goo.gl/D5cTK4rV3UbooVf6A"
  },
  {
    "name": "川香園小館",
    "lat": 25.069842657925527,
    "lng": 121.61368202513279,
    "platform": "Facebook",
    "link": "https://www.facebook.com/reel/1685181402126851",
    "type": "小吃",
    "city": "台北市",
    "District": "內湖區",
    "google_map": "https://maps.app.goo.gl/WAxZMjPRZvBDzs6j7"
  },
  {
    "name": "甘泉豆花",
    "lat": 25.071279484235642,
    "lng": 121.61272694120832,
    "platform": "Facebook",
    "link": "https://www.facebook.com/reel/1685181402126851",
    "type": "甜點 / 冰品",
    "city": "台北市",
    "District": "內湖區",
    "google_map": "https://maps.app.goo.gl/MnsAdrqLEPvPzXGE6"
  },
  {
    "name": "歐告卷壽司",
    "lat": 24.930189090102044,
    "lng": 121.23289445396445,
    "platform": "Facebook",
    "link": "https://www.facebook.com/reel/595666693573525",
    "type": "生魚片 / 海鮮",
    "city": "桃園市",
    "District": "平鎮區",
    "google_map": "https://maps.app.goo.gl/eEFR9LTLrhVgADBF9"
  },
  {
    "name": "大龍鳳茶餐廳",
    "lat": 25.040379343468324,
    "lng": 121.57867042085746,
    "platform": "Facebook",
    "link": "https://www.facebook.com/reel/1406933740639034",
    "type": "港式 ",
    "city": "台北市",
    "District": "信義區",
    "google_map": "https://maps.app.goo.gl/TdYt1EDRpJ85xvjDA"
  },
  {
    "name": "源味滷肉飯",
    "lat": 25.17934026911215,
    "lng": 121.44961902513538,
    "platform": "Facebook",
    "link": "https://www.facebook.com/reel/1243411550793760",
    "type": "小吃",
    "city": "新北市",
    "District": "淡水區",
    "google_map": "https://maps.app.goo.gl/G1dqvEhJgR6aNmWb6"
  },
  {
    "name": "海尾子海灘",
    "lat": 25.202634936032144,
    "lng": 121.42392178280564,
    "platform": "Facebook",
    "link": "https://www.facebook.com/reel/1243411550793760",
    "type": "室外景點",
    "city": "新北市",
    "District": "淡水區",
    "google_map": "https://maps.app.goo.gl/s5qdn7gamcLTdFXD8"
  },
  {
    "name": "豐衣足食",
    "lat": 25.050740409379642,
    "lng": 121.45207946930674,
    "platform": "Facebook",
    "link": "https://www.facebook.com/reel/1168296902006042",
    "type": "小吃",
    "city": "新北市",
    "District": "新莊區",
    "google_map": "https://maps.app.goo.gl/DbxCamFWrBcDM4fh8"
  },
  {
    "name": "火雲長伯豆標",
    "lat": 23.95535250750108,
    "lng": 120.58605817847204,
    "platform": "Facebook",
    "link": "https://www.facebook.com/reel/1217468920042991",
    "type": "小吃",
    "city": "彰化縣",
    "District": "員林市",
    "google_map": "https://maps.app.goo.gl/3t1uE2EJs7bFF5wj9"
  },
  {
    "name": "魚滿堂豐原排骨麵",
    "lat": 23.96240434903,
    "lng": 120.5705795478238,
    "platform": "Facebook",
    "link": "https://www.facebook.com/reel/1217468920042991",
    "type": "小吃",
    "city": "彰化縣",
    "District": "員林市",
    "google_map": "https://maps.app.goo.gl/U3aCc5nPgs9W4JGJ7"
  },
  {
    "name": "寶斗肉圓",
    "lat": 23.95839767651114,
    "lng": 120.57150126743785,
    "platform": "Facebook",
    "link": "https://www.facebook.com/reel/1217468920042991",
    "type": "小吃",
    "city": "彰化縣",
    "District": "員林市",
    "google_map": "https://maps.app.goo.gl/qmwqZiG5J2cUWPqS9"
  },
  {
    "name": "華成牛肉麵",
    "lat": 23.962843731006835,
    "lng": 120.57281299627265,
    "platform": "Facebook",
    "link": "https://www.facebook.com/reel/1217468920042991",
    "type": "牛肉麵",
    "city": "彰化縣",
    "District": "員林市",
    "google_map": "https://maps.app.goo.gl/92835zhqbWSHCAxx6"
  },
  {
    "name": "好胃口胡椒餅",
    "lat": 23.95920671038208,
    "lng": 120.57209891161224,
    "platform": "Facebook",
    "link": "https://www.facebook.com/reel/1217468920042991",
    "type": "小吃",
    "city": "彰化縣",
    "District": "員林市",
    "google_map": "https://maps.app.goo.gl/tqvoFYBn8zE1mgBz7"
  },
  {
    "name": "夢幻三家",
    "lat": 23.9602882,
    "lng": 120.570505,
    "platform": "Facebook",
    "link": "https://www.facebook.com/reel/1217468920042991",
    "type": "小吃",
    "city": "彰化縣",
    "District": "員林市",
    "google_map": "https://maps.app.goo.gl/RyCbdRxyZbpHZ8Dq6"
  },
  {
    "name": "不老松足湯中壢延平行館",
    "lat": 24.9581722,
    "lng": 121.2239426,
    "platform": "Facebook",
    "link": "https://www.facebook.com/reel/543318655518672",
    "type": "旅館",
    "city": "桃園市",
    "District": "中壢區",
    "google_map": "https://maps.app.goo.gl/i9yqjHzpSZjs42Yt5"
  },
  {
    "name": "W咖啡",
    "lat": 24.2365505,
    "lng": 120.5560393,
    "platform": "Facebook",
    "link": "https://www.facebook.com/reel/683787010786262",
    "type": "咖啡廳",
    "city": "台中市",
    "District": "沙鹿區",
    "google_map": "https://maps.app.goo.gl/SUJRYBiDWuhE3R3C6"
  },
  {
    "name": "北漁生鮮沙西米",
    "lat": 25.018417060084385,
    "lng": 121.49704654811583,
    "platform": "Facebook",
    "link": "https://www.facebook.com/reel/2246956629151666",
    "type": "生魚片 / 海鮮",
    "city": "台北市",
    "District": "萬華區",
    "google_map": "https://maps.app.goo.gl/x2gjoqYbMWzSix6b6"
  },
  {
    "name": "東方匯旗艦店",
    "lat": 24.05684782985214,
    "lng": 120.44036530996257,
    "platform": "Facebook",
    "link": "https://www.facebook.com/reel/9340217949415980",
    "type": "甜點 / 冰品",
    "city": "彰化縣",
    "District": "鹿港鎮",
    "google_map": "https://maps.app.goo.gl/hLFEr6U2ZDc6WSo57"
  },
  {
    "name": "水月手工冰棒",
    "lat": 25.0700447,
    "lng": 121.4848481,
    "platform": "Facebook",
    "link": "https://www.facebook.com/reel/2963718330596202",
    "type": "甜點 / 冰品",
    "city": "新北市",
    "District": "三重區",
    "google_map": "https://maps.app.goo.gl/P7yhiPdUFrVNtyVB6"
  },
  {
    "name": "火紅手桿麵",
    "lat": 25.0204019,
    "lng": 121.5541516,
    "platform": "Facebook",
    "link": "https://www.facebook.com/reel/1235307774836381",
    "type": "小吃",
    "city": "台北市",
    "District": "大安區",
    "google_map": "https://maps.app.goo.gl/uGJdzcCZ1JKfHVt29"
  },
  {
    "name": "阿清豆漿",
    "lat": 25.0216138,
    "lng": 121.5542358,
    "platform": "Facebook",
    "link": "https://www.facebook.com/reel/1235307774836381",
    "type": "小吃",
    "city": "台北市",
    "District": "大安區",
    "google_map": "https://maps.app.goo.gl/UJkGtxFPoD6etvkd7"
  },
  {
    "name": "午冬甜點(午冬 5.TUNG)",
    "lat": 25.027257,
    "lng": 121.551608,
    "platform": "Facebook",
    "link": "https://www.facebook.com/reel/1235307774836381",
    "type": "甜點 / 冰品",
    "city": "台北市",
    "District": "大安區",
    "google_map": "https://maps.app.goo.gl/sE9gufKg5ZW3DWcJ7"
  },
  {
    "name": "小慧涼麵",
    "lat": 25.0187831,
    "lng": 121.5511605,
    "platform": "Facebook",
    "link": "https://www.facebook.com/reel/1235307774836381",
    "type": "小吃",
    "city": "台北市",
    "District": "大安區",
    "google_map": "https://maps.app.goo.gl/nXsNJYiFdHsSrXBK8"
  },
  {
    "name": "老宋記真善美牛肉麵",
    "lat": 25.0199052,
    "lng": 121.5538534,
    "platform": "Facebook",
    "link": "https://www.facebook.com/reel/1235307774836381",
    "type": "牛肉麵",
    "city": "台北市",
    "District": "大安區",
    "google_map": "https://maps.app.goo.gl/QujyBPDgbvngjYf16"
  },
  {
    "name": "麗馥小吃",
    "lat": 25.020909552754986,
    "lng": 121.55415986624286,
    "platform": "Facebook",
    "link": "https://www.facebook.com/reel/1235307774836381",
    "type": "小吃",
    "city": "台北市",
    "District": "大安區",
    "google_map": "https://maps.app.goo.gl/NbVAufbLMohDaLyH6"
  },
  {
    "name": "樂業麵線",
    "lat": 25.0203095,
    "lng": 121.5525343,
    "platform": "Facebook",
    "link": "https://www.facebook.com/reel/1235307774836381",
    "type": "小吃",
    "city": "台北市",
    "District": "大安區",
    "google_map": "https://maps.app.goo.gl/QH3SE6sz51eo9NUDA"
  },
  {
    "name": "佐藤咖喱",
    "lat": 25.022143455712875,
    "lng": 121.55444623382967,
    "platform": "Facebook",
    "link": "https://www.facebook.com/reel/1235307774836381",
    "type": "咖哩",
    "city": "台北市",
    "District": "大安區",
    "google_map": "https://maps.app.goo.gl/SQB4bf8MuAvgami68"
  },
  {
    "name": "星夢森林森林劇場",
    "lat": 24.6807635,
    "lng": 121.7399275,
    "platform": "Facebook",
    "link": "https://www.facebook.com/reel/1347246593205103",
    "type": "牧場",
    "city": "宜蘭縣",
    "District": "冬山鄉",
    "google_map": "https://maps.app.goo.gl/xdt24Q2cagdn4rPu9"
  },
  {
    "name": "老串角-板橋中山店",
    "lat": 25.0199988,
    "lng": 121.4810592,
    "platform": "Facebook",
    "link": "https://www.facebook.com/reel/1267455485115709",
    "type": "居酒/燒烤",
    "city": "新北市",
    "District": "板橋區",
    "google_map": "https://maps.app.goo.gl/N3Hc33U8xoLq4XSY6"
  },
  {
    "name": "老串角-三重店",
    "lat": 25.0614534,
    "lng": 121.4867114,
    "platform": "Facebook",
    "link": "https://www.facebook.com/reel/1267455485115709",
    "type": "居酒/燒烤",
    "city": "新北市",
    "District": "三重區",
    "google_map": "https://maps.app.goo.gl/JWBbsyx9EpXSYZDw8"
  },
  {
    "name": "老串角-新莊店",
    "lat": 25.0350849,
    "lng": 121.4481752,
    "platform": "Facebook",
    "link": "https://www.facebook.com/reel/1267455485115709",
    "type": "居酒/燒烤",
    "city": "新北市",
    "District": "新莊區",
    "google_map": "https://maps.app.goo.gl/gJdL1kQfj92ge9jG6"
  },
  {
    "name": "老串角-永和永貞店",
    "lat": 25.0056484,
    "lng": 121.5106993,
    "platform": "Facebook",
    "link": "https://www.facebook.com/reel/1267455485115709",
    "type": "居酒/燒烤",
    "city": "新北市",
    "District": "永和區",
    "google_map": "https://maps.app.goo.gl/d9K7PmsRCMaFKM8q6"
  },
  {
    "name": "老串角-土城店",
    "lat": 24.968371,
    "lng": 121.438034,
    "platform": "Facebook",
    "link": "https://www.facebook.com/reel/1267455485115709",
    "type": "居酒/燒烤",
    "city": "新北市",
    "District": "土城區",
    "google_map": "https://maps.app.goo.gl/fjKszvNP7dFu1n4n6"
  },
  {
    "name": "螢營的天空",
    "lat": 24.0367618,
    "lng": 121.1516304,
    "platform": "Facebook",
    "link": "https://www.facebook.com/reel/1427805125073502",
    "type": "室外景點",
    "city": "南投縣",
    "District": "仁愛鄉",
    "google_map": "https://maps.app.goo.gl/Ee7on6mujupXk4zr7"
  },
  {
    "name": "何家香香麻辣鴛鴦鍋吃到飽",
    "lat": 25.0003359,
    "lng": 121.481186,
    "platform": "Facebook",
    "link": "https://www.facebook.com/reel/1111099037727430",
    "type": "火鍋",
    "city": "新北市",
    "District": "中和區",
    "google_map": "https://maps.app.goo.gl/CySrC9gRnXGkzmFK7"
  },
  {
    "name": "苦花大王",
    "lat": 24.752237,
    "lng": 121.645831,
    "platform": "Facebook",
    "link": "https://www.facebook.com/reel/3627441610891416",
    "type": "海鮮/活魚",
    "city": "宜蘭縣",
    "District": "員山鄉",
    "google_map": "https://maps.app.goo.gl/diBnrEi4CYJZGgTG7"
  },
  {
    "name": "茄苳瀑布",
    "lat": 25.053810933397504,
    "lng": 121.67605164233025,
    "platform": "小兔小安*旅遊札記",
    "link": "https://bunnyann.tw/nightshade-falls-25/",
    "type": "室外景點",
    "city": "新北市",
    "District": "汐止區",
    "google_map": "https://maps.app.goo.gl/ipezfF1LrgyHBPbeA"
  },
  {
    "name": "羌仔連埤",
    "lat": 24.729299,
    "lng": 121.688575,
    "platform": "跟著領隊sky玩",
    "link": "https://taiwantour.net/qiangzi-lianpi/",
    "type": "室外景點",
    "city": "宜蘭縣",
    "District": "員山鄉",
    "google_map": "https://maps.app.goo.gl/cjGi9QmF1BRBgG1a6"
  },
  {
    "name": "明池國家森林遊樂區",
    "lat": 24.6509119,
    "lng": 121.4715114,
    "platform": "Facebook",
    "link": "https://www.facebook.com/reel/1080575277446277",
    "type": "室外景點",
    "city": "宜蘭縣",
    "District": "大同鄉",
    "google_map": "https://maps.app.goo.gl/iGM3PiDWuZePWRTj8"
  },
  {
    "name": "磺溪頭清水園區",
    "lat": 25.2114695,
    "lng": 121.5957919,
    "platform": "跟著領隊sky玩",
    "link": "https://taiwantour.net/suanxitou/",
    "type": "室外景點",
    "city": "新北市",
    "District": "金山區",
    "google_map": "https://maps.app.goo.gl/uXxb2pPXwHUncG91A"
  },
  {
    "name": "萌萌物語",
    "lat": 25.0093441,
    "lng": 121.644322,
    "platform": "Facebook",
    "link": "https://www.facebook.com/reel/2391435997898066",
    "type": "動物餐廳",
    "city": "新北市",
    "District": "石碇區",
    "google_map": "https://maps.app.goo.gl/5mdn6kJRkZnuZzTeA"
  },
  {
    "name": "莫恩布丁",
    "lat": 25.0190233,
    "lng": 121.464525,
    "platform": "Facebook",
    "link": "https://www.facebook.com/reel/964387395540983",
    "type": "甜點 / 冰品",
    "city": "新北市",
    "District": "板橋區",
    "google_map": "https://maps.app.goo.gl/f1s2er5rTMGmb8Je6"
  },
  {
    "name": "宜蘭礁溪 空ㄟ農場",
    "lat": 24.8381491,
    "lng": 121.7757004,
    "platform": "Facebook",
    "link": "https://www.facebook.com/reel/1704596880156055",
    "type": "農場(牧場)",
    "city": "宜蘭縣",
    "District": "礁溪鄉",
    "google_map": "https://maps.app.goo.gl/Nzn86uZ2vSjtXBSEA"
  },
  {
    "name": "天然山壁自湧泉",
    "lat": 24.7411323,
    "lng": 121.688624,
    "platform": "Facebook",
    "link": "https://www.facebook.com/reel/2469005786792687",
    "type": "室外景點",
    "city": "宜蘭縣",
    "District": "員山鄉",
    "google_map": "https://maps.app.goo.gl/fbTLs4d1nJqybYTw6"
  },
  {
    "name": "一碗小肥羊",
    "lat": 24.952708,
    "lng": 121.542197,
    "platform": "Facebook",
    "link": "https://www.facebook.com/reel/968290391959023(失效)",
    "type": "羊肉",
    "city": "新北市",
    "District": "新店區",
    "google_map": "https://maps.app.goo.gl/5fNkh9jpeuxxfSQV9"
  },
  {
    "name": "犢饗溫體牛",
    "lat": 25.0243064,
    "lng": 121.4660617,
    "platform": "Facebook",
    "link": "https://www.facebook.com/reel/3965623263717511",
    "type": "牛肉",
    "city": "新北市",
    "District": "板橋區",
    "google_map": "https://maps.app.goo.gl/bTN7WauNQ1gSt9t2A"
  },
  {
    "name": "喫飽沙克飯",
    "lat": 25.0834751,
    "lng": 121.4374519,
    "platform": "Facebook",
    "link": "https://www.facebook.com/reel/1453945715987980",
    "type": "小吃",
    "city": "新北市",
    "District": "五股區",
    "google_map": "https://maps.app.goo.gl/DD8PzDoquV1gjmP9A"
  },
  {
    "name": "芭NANA CAFÉ",
    "lat": 25.1276232,
    "lng": 121.3455597,
    "platform": "Facebook",
    "link": "https://www.facebook.com/reel/1177569190363079",
    "type": "咖啡廳",
    "city": "新北市",
    "District": "林口區",
    "google_map": "https://maps.app.goo.gl/H6UyCwAYHyppdzFH7"
  },
  {
    "name": "微風平台",
    "lat": 25.0841035,
    "lng": 121.5284672,
    "platform": "Facebook",
    "link": "https://www.facebook.com/reel/1366402871069185",
    "type": "室外景點",
    "city": "台北市",
    "District": "中山區",
    "google_map": "https://maps.app.goo.gl/LRqBYzMdBJ2DtPKu7"
  },
  {
    "name": "台北香香甜品",
    "lat": 25.0311403,
    "lng": 121.5039879,
    "platform": "Facebook",
    "link": "https://www.facebook.com/reel/660223526457220",
    "type": "冰品 / 甜點",
    "city": "台北市",
    "District": "萬華區",
    "google_map": "https://maps.app.goo.gl/QDogTHJFWjZnLm5t6"
  },
  {
    "name": "蘭姐麵線油飯",
    "lat": 25.0270487,
    "lng": 121.4642598,
    "platform": "Facebook",
    "link": "https://www.facebook.com/reel/3121464104696386",
    "type": "小吃",
    "city": "新北市",
    "District": "板橋區",
    "google_map": "https://maps.app.goo.gl/SgeEmvyChT4VZvxD8"
  },
  {
    "name": "喫飯食堂",
    "lat": 25.032338,
    "lng": 121.529477,
    "platform": "Facebook",
    "link": "https://www.facebook.com/watch/?ref=saved&v=1027396022149520",
    "type": "合菜",
    "city": "台北市",
    "District": "大安區",
    "google_map": "https://maps.app.goo.gl/ot2jWBoAoPaZnzPa6"
  },
  {
    "name": "萌萌森林物語",
    "lat": 25.0093441,
    "lng": 121.644322,
    "platform": "Facebook",
    "link": "https://www.facebook.com/reel/1448461943191058",
    "type": "戶外景點",
    "city": "新北市",
    "District": "石碇區",
    "google_map": "https://maps.app.goo.gl/5mdn6kJRkZnuZzTeA"
  },
  {
    "name": "謀魚蝦也蠔",
    "lat": 25.0788173,
    "lng": 121.4918764,
    "platform": "Facebook",
    "link": "https://www.facebook.com/reel/3854447384805699",
    "type": "海鮮",
    "city": "新北市",
    "District": "三重區",
    "google_map": "https://maps.app.goo.gl/4uRDVPe1YEsz8cKk7"
  },
  {
    "name": "第四橫街那家 ",
    "lat": 24.2564276,
    "lng": 120.8297636,
    "platform": "Facebook",
    "link": "https://www.facebook.com/reel/1465015651544420",
    "type": "冰品 / 甜點",
    "city": "台中市",
    "District": "東勢區",
    "google_map": "https://maps.app.goo.gl/mHZqxtAJsW8gXVrr9"
  },
  {
    "name": "忻鮨壽司",
    "lat": 25.0385451,
    "lng": 121.5008426,
    "platform": "Facebook",
    "link": "https://www.facebook.com/reel/1848253302686747",
    "type": "生魚片 / 海鮮",
    "city": "台北市",
    "District": "萬華區",
    "google_map": "https://maps.app.goo.gl/E7F3bK6tiAxcxSFaA"
  },
  {
    "name": "正谷家",
    "lat": 24.996341056249747,
    "lng": 121.29658312484823,
    "platform": "Facebook",
    "link": "https://www.facebook.com/reel/1725992688316565",
    "type": "火鍋",
    "city": "桃園市",
    "District": "桃園區",
    "google_map": "https://maps.app.goo.gl/jxYvGrPw62k7EZng8"
  },
  {
    "name": "鴨肉本",
    "lat": 22.6287497,
    "lng": 120.2827299,
    "platform": "Facebook",
    "link": "https://www.facebook.com/reel/1320380289194305",
    "type": "小吃",
    "city": "高雄市",
    "District": "鹽埕區",
    "google_map": "https://maps.app.goo.gl/PBTecudoJSYYY9hH9"
  },
  {
    "name": "双妃奶茶",
    "lat": 22.6246937,
    "lng": 120.2836393,
    "platform": "Facebook",
    "link": "https://www.facebook.com/reel/1320380289194305",
    "type": "飲料",
    "city": "高雄市",
    "District": "鹽埕區",
    "google_map": "https://maps.app.goo.gl/WFTw7dVaeyt2k395A"
  },
  {
    "name": "鹽埕吳家金桔豆花",
    "lat": 22.6281759,
    "lng": 120.2843741,
    "platform": "Facebook",
    "link": "https://www.facebook.com/reel/1320380289194305",
    "type": "冰品 / 甜點",
    "city": "高雄市",
    "District": "鹽埕區",
    "google_map": "https://maps.app.goo.gl/tW2ZnkJc2yPjHdVx6"
  },
  {
    "name": "阿成師廟口熱炒",
    "lat": 22.6298804,
    "lng": 120.2853098,
    "platform": "Facebook",
    "link": "https://www.facebook.com/reel/1320380289194305",
    "type": "熱炒類",
    "city": "高雄市",
    "District": "鹽埕區",
    "google_map": "https://maps.app.goo.gl/nnTNSPThTBPwfpYw5"
  },
  {
    "name": "企鵝文肉羹店",
    "lat": 25.0580219,
    "lng": 121.5201503,
    "platform": "Facebook",
    "link": "https://www.facebook.com/reel/617802531253068",
    "type": "小吃",
    "city": "台北市",
    "District": "大同區",
    "google_map": "https://maps.app.goo.gl/Hr9QUWscwCucc9Kr8"
  },
  {
    "name": "任澤鐵板燒-梧棲店",
    "lat": 24.2588665,
    "lng": 120.5321034,
    "platform": "Facebook",
    "link": "https://www.facebook.com/reel/1444696176904995",
    "type": "鐵板燒",
    "city": "台中市",
    "District": "梧棲區",
    "google_map": "https://maps.app.goo.gl/KAt1N8DkkArmR9Ds9"
  },
  {
    "name": "新竹｜文山步道",
    "lat": 24.8246843,
    "lng": 121.0459614,
    "platform": "Facebook",
    "link": "https://www.facebook.com/reel/1472056517513378",
    "type": "健行",
    "city": "新竹縣",
    "District": "新埔鎮",
    "google_map": "https://maps.app.goo.gl/ayzpGS7QQwWPxcG18"
  },
  {
    "name": "蚵學家",
    "lat": 24.8565861,
    "lng": 120.9996376,
    "platform": "Facebook",
    "link": "https://www.facebook.com/reel/558197453982495",
    "type": "熱炒/燒烤",
    "city": "新竹縣",
    "District": "竹北市",
    "google_map": "https://maps.app.goo.gl/XHYLavB3sNMK4tUy9"
  },
  {
    "name": "桃園Mr’may義式百匯",
    "lat": 25.0076916,
    "lng": 121.3026162,
    "platform": "Facebook",
    "link": "https://www.facebook.com/reel/2078658869311175",
    "type": "buffet",
    "city": "桃園市",
    "District": "桃園區",
    "google_map": "https://maps.app.goo.gl/LZd1Vt9aSXJC56aN9"
  },
  {
    "name": "煙波大飯店 新竹湖濱館",
    "lat": 24.7751917,
    "lng": 120.9676462,
    "platform": "Facebook",
    "link": "https://www.facebook.com/reel/1130309508850755",
    "type": "戶外景點",
    "city": "新竹市",
    "District": "東區",
    "google_map": "https://maps.app.goo.gl/EThQgFAS2WwRMtL38"
  },
  {
    "name": "告春食彩海鮮鍋物",
    "lat": 24.8186363,
    "lng": 121.7695206,
    "platform": "Facebook",
    "link": "https://www.facebook.com/reel/686416470545406",
    "type": "海鮮",
    "city": "宜蘭縣",
    "District": "礁溪鄉",
    "google_map": "https://maps.app.goo.gl/AJDkqeDd6ekN6HGw7"
  },
  {
    "name": "Merci Crème",
    "lat": 25.0176546,
    "lng": 121.4665234,
    "platform": "Facebook",
    "link": "https://www.facebook.com/reel/671436862254313",
    "type": "冰品 / 甜點",
    "city": "新北市",
    "District": "板橋區",
    "google_map": "https://maps.app.goo.gl/y4kxrrq8dxteCh2LA"
  },
  {
    "name": "大甲康家阿媽ㄟ粉腸",
    "lat": 24.3458815,
    "lng": 120.6226021,
    "platform": "Facebook",
    "link": "https://www.facebook.com/reel/1358350552024875",
    "type": "小吃",
    "city": "台中市",
    "District": "大甲區",
    "google_map": "https://maps.app.goo.gl/QQvfmnpDRJyvouwe6"
  },
  {
    "name": "武淵阿月婆婆蔥油餅香腸",
    "lat": 24.6594374,
    "lng": 121.7977967,
    "platform": "Facebook",
    "link": "https://www.facebook.com/reel/1077051527565345",
    "type": "小吃",
    "city": "宜蘭縣",
    "District": "冬山鄉",
    "google_map": "https://maps.app.goo.gl/CHiqQPgSZy7wtEYy8"
  },
  {
    "name": "大屯山主峰連峰步道",
    "lat": 25.1784042,
    "lng": 121.5221358,
    "platform": "跟著領隊sky玩",
    "link": "https://taiwantour.net/datun-mountain/",
    "type": "健行",
    "city": "台北市",
    "District": "北投區",
    "google_map": "https://maps.app.goo.gl/t2nDvPVX6n6JRsPMA"
  },
  {
    "name": "廖桑手作油飯",
    "lat": 25.0311401,
    "lng": 121.4753491,
    "platform": "Facebook",
    "link": "https://www.facebook.com/reel/990357502859580",
    "type": "小吃",
    "city": "新北市",
    "District": "板橋區",
    "google_map": "https://maps.app.goo.gl/Jj3pGVWYti4qqjBm6"
  },
  {
    "name": "望龍碑鵝肉",
    "lat": 24.7778449,
    "lng": 121.7007434,
    "platform": "Facebook",
    "link": "https://www.facebook.com/reel/1194270032097894",
    "type": "小吃",
    "city": "宜蘭縣",
    "District": "員山鄉",
    "google_map": "https://maps.app.goo.gl/NnhbQqw74MyQQ3pr6"
  },
  {
    "name": "食咣雞肉飯",
    "lat": 25.018729,
    "lng": 121.479706,
    "platform": "Facebook",
    "link": "https://www.facebook.com/reel/685816090501985",
    "type": "小吃",
    "city": "新北市",
    "District": "板橋區",
    "google_map": "https://maps.app.goo.gl/eCvndxwGamM2CSnr5"
  },
  {
    "name": "香港茶水攤延吉店",
    "lat": 25.0419098,
    "lng": 121.5547943,
    "platform": "Nash，神之領域",
    "link": "https://nasheat.tw/hong-kong-cuisine/",
    "type": "飲料",
    "city": "台北市",
    "District": "大安區",
    "google_map": "https://maps.app.goo.gl/gsMvtMN8hKxHEqwW6"
  },
  {
    "name": "93蕃茄刀削牛肉麵",
    "lat": 25.044290020542096,
    "lng": 121.52154580950949,
    "platform": "水晶安蹄",
    "link": "https://auntie.tw/93tomato/",
    "type": "牛肉麵",
    "city": "台北市",
    "District": "中正區",
    "google_map": "https://maps.app.goo.gl/msHH67fFC1Tas6gv9"
  },
  {
    "name": "饗厚牛排",
    "lat": 24.99494148250899,
    "lng": 121.29545696717831,
    "platform": "Facebook",
    "link": "https://www.facebook.com/reel/605388819169772",
    "type": "牛排",
    "city": "桃園市",
    "District": "桃園區",
    "google_map": "https://maps.app.goo.gl/GRZcC1uVJRRYzfAF9"
  },
  {
    "name": "老拌香噴牛三寶",
    "lat": 24.1335043,
    "lng": 120.7007188,
    "platform": "Facebook",
    "link": "https://www.facebook.com/reel/9362958560391648",
    "type": "牛肉",
    "city": "台中市",
    "District": "東區",
    "google_map": "https://maps.app.goo.gl/x6q7JTfbKuTPMTdw9"
  },
  {
    "name": "施福建好吃雞肉",
    "lat": 25.0467004,
    "lng": 121.5040355,
    "platform": "Facebook",
    "link": "https://www.facebook.com/reel/4798030000422074",
    "type": "小吃",
    "city": "台北市",
    "District": "萬華區",
    "google_map": "https://maps.app.goo.gl/KhV2CZJxSUVELdUx5"
  },
  {
    "name": "家常煲仔飯",
    "lat": 25.0659367,
    "lng": 121.6420693,
    "platform": "Facebook",
    "link": "https://www.facebook.com/reel/1376706963523843",
    "type": "小吃",
    "city": "新北市",
    "District": "汐止區",
    "google_map": "https://maps.app.goo.gl/Qzakt3iCTnf75Yb26"
  },
  {
    "name": "阿夢 Among",
    "lat": 25.0273422,
    "lng": 121.5110963,
    "platform": "Facebook",
    "link": "https://www.facebook.com/reel/695799249467546",
    "type": "咖啡廳",
    "city": "台北市",
    "District": "中正區",
    "google_map": "https://maps.app.goo.gl/QrqLMyE5U38oSpgy9"
  },
  {
    "name": "九芎根親水公園",
    "lat": 24.8855718,
    "lng": 121.6651578,
    "platform": "跟著領隊sky玩",
    "link": "https://taiwantour.net/jiuxiong-root/",
    "type": "健行",
    "city": "新北市",
    "District": "坪林區",
    "google_map": "https://maps.app.goo.gl/gqEDC3psw9SY8gYn9"
  },
  {
    "name": "李記麵粉煎",
    "lat": 25.129394454262552,
    "lng": 121.74427968669283,
    "platform": "Facebook",
    "link": "https://www.facebook.com/reel/2755235114866236",
    "type": "小吃",
    "city": "基隆市",
    "District": "仁愛區",
    "google_map": "https://maps.app.goo.gl/2qATyKuNSg4kYPbY8"
  },
  {
    "name": "全家福元宵",
    "lat": 25.1288069,
    "lng": 121.7441998,
    "platform": "Facebook",
    "link": "https://www.facebook.com/reel/2755235114866236",
    "type": "冰品 / 甜點",
    "city": "基隆市",
    "District": "仁愛區",
    "google_map": "https://maps.app.goo.gl/2hovjoTY6jEzpjp5A"
  },
  {
    "name": "世盛一口吃香腸",
    "lat": 25.1281969,
    "lng": 121.7433535,
    "platform": "Facebook",
    "link": "https://www.facebook.com/reel/2755235114866236",
    "type": "小吃",
    "city": "基隆市",
    "District": "仁愛區",
    "google_map": "https://maps.app.goo.gl/67vPFKcCErnUtuYQ6"
  },
  {
    "name": "圳記紅燒鰻",
    "lat": 25.1283552,
    "lng": 121.7436772,
    "platform": "Facebook",
    "link": "https://www.facebook.com/reel/2755235114866236",
    "type": "小吃",
    "city": "基隆市",
    "District": "仁愛區",
    "google_map": "https://maps.app.goo.gl/iQobrP76gaTtQ66UA"
  },
  {
    "name": "天盛舖營養三明治",
    "lat": 25.1283628,
    "lng": 121.7434002,
    "platform": "Facebook",
    "link": "https://www.facebook.com/reel/2755235114866236",
    "type": "小吃",
    "city": "基隆市",
    "District": "仁愛區",
    "google_map": "https://maps.app.goo.gl/3BtKpJ5JKverJU766"
  },
  {
    "name": "吳記螃蟹羹",
    "lat": 25.1285208,
    "lng": 121.7428412,
    "platform": "Facebook",
    "link": "https://www.facebook.com/reel/2755235114866236",
    "type": "海鮮",
    "city": "基隆市",
    "District": "仁愛區",
    "google_map": "https://maps.app.goo.gl/Ki2DNWQMiEHH67Yq5"
  },
  {
    "name": "聖德宮",
    "lat": 25.059147389829754,
    "lng": 121.66750778271215,
    "platform": "Facebook",
    "link": "https://www.facebook.com/reel/1268801317547370",
    "type": "宮廟",
    "city": "新北市",
    "District": "汐止區",
    "google_map": "https://maps.app.goo.gl/ji8HKqSxDzFJGooc9"
  },
  {
    "name": "雲森瀑布",
    "lat": 24.83434,
    "lng": 121.46602,
    "platform": "Facebook",
    "link": "https://www.facebook.com/reel/1372895567095013",
    "type": "戶外景點",
    "city": "新北市",
    "District": "三峽區",
    "google_map": "https://maps.app.goo.gl/Lf78CcUnAcP3FkmcA"
  },
  {
    "name": "尚雯早午餐",
    "lat": 25.0520883,
    "lng": 121.5121687,
    "platform": "Facebook",
    "link": "https://www.facebook.com/reel/1204712951067104",
    "type": "早午餐",
    "city": "台北市",
    "District": "大同區",
    "google_map": "https://maps.app.goo.gl/xiEMzFKmH3kAk4YNA"
  },
  {
    "name": "惠安公園",
    "lat": 25.0250231,
    "lng": 121.5643527,
    "platform": "Facebook",
    "link": "https://www.facebook.com/reel/946038380775499",
    "type": "健行",
    "city": "台北市",
    "District": "信義區",
    "google_map": "https://maps.app.goo.gl/1dHTHRsGVtG7U3Ug6"
  },
  {
    "name": "賢夫美食",
    "lat": 25.0136509,
    "lng": 121.5349726,
    "platform": "Facebook",
    "link": "https://www.facebook.com/reel/3947555948889953",
    "type": "港式 ",
    "city": "台北市",
    "District": "中正區",
    "google_map": "https://maps.app.goo.gl/34rWoii5rp8hAqf89"
  },
  {
    "name": "台南牛饕溫體牛肉湯 桃園店",
    "lat": 24.9962998,
    "lng": 121.3099065,
    "platform": "Facebook",
    "link": "https://www.facebook.com/reel/568331129541749",
    "type": "牛肉",
    "city": "桃園市",
    "District": "桃園區",
    "google_map": "https://maps.app.goo.gl/XwDFGHF4oMEAFLVP7"
  },
  {
    "name": "曾鮮黑鮪魚專賣",
    "lat": 22.4681087,
    "lng": 120.4436369,
    "platform": "Facebook",
    "link": "https://www.facebook.com/reel/1206864480910389",
    "type": "生魚片 / 海鮮",
    "city": "屏東縣",
    "District": "東港鎮",
    "google_map": "https://maps.app.goo.gl/FwwMhvprFFuLcCAv6"
  },
  {
    "name": "阿金代煮",
    "lat": 22.468306,
    "lng": 120.4440604,
    "platform": "Facebook",
    "link": "https://www.facebook.com/reel/1206864480910389",
    "type": "熱炒類",
    "city": "屏東縣",
    "District": "東港鎮",
    "google_map": "https://maps.app.goo.gl/9j3as2JNTGL7wzDC7"
  },
  {
    "name": "阿田香雞翅",
    "lat": 22.4678397,
    "lng": 120.4444445,
    "platform": "Facebook",
    "link": "https://www.facebook.com/reel/1206864480910389",
    "type": "小吃",
    "city": "屏東縣",
    "District": "東港鎮",
    "google_map": "https://maps.app.goo.gl/8rM63KLeSSqABcPt5"
  },
  {
    "name": "東港HOYA熱壓吐司",
    "lat": 22.4670884,
    "lng": 120.4447249,
    "platform": "Facebook",
    "link": "https://www.facebook.com/reel/1206864480910389",
    "type": "冰品 / 甜點",
    "city": "屏東縣",
    "District": "東港鎮",
    "google_map": "https://maps.app.goo.gl/uCMtj9QvVgak1qXF7"
  },
  {
    "name": "樹懶餐廳",
    "lat": 24.6809969,
    "lng": 121.6758966,
    "platform": "Facebook",
    "link": "https://www.facebook.com/reel/1421242412574280",
    "type": "動物餐廳",
    "city": "宜蘭縣",
    "District": "三星鄉",
    "google_map": "https://maps.app.goo.gl/Q8NEpdVDhcr6TvhW7"
  },
  {
    "name": "三媽臭臭鍋 樹新店",
    "lat": 24.9947896,
    "lng": 121.4274579,
    "platform": "Facebook",
    "link": "https://www.facebook.com/reel/538982999202649",
    "type": "火鍋",
    "city": "新北市",
    "District": "樹林區",
    "google_map": "https://maps.app.goo.gl/tAexa74QDgGPBiCS8"
  },
  {
    "name": "幸福廚房阿廷師私房菜",
    "lat": 25.0136797,
    "lng": 121.5174178,
    "platform": "Facebook",
    "link": "https://www.facebook.com/reel/518495961328556",
    "type": "小吃",
    "city": "新北市",
    "District": "永和區",
    "google_map": "https://maps.app.goo.gl/5PqEavvzaBKatB686"
  },
  {
    "name": "永福鎮牛肉麵",
    "lat": 25.0312905,
    "lng": 121.433904,
    "platform": "Facebook",
    "link": "https://www.facebook.com/reel/1171530154884638",
    "type": "牛肉麵",
    "city": "新北市",
    "District": "新莊區",
    "google_map": "https://maps.app.goo.gl/tjHvDBwMPLpsWMeB9"
  },
  {
    "name": "忠誠牛肉麵",
    "lat": 25.1073276,
    "lng": 121.5275642,
    "platform": "Facebook",
    "link": "https://www.facebook.com/reel/446392985198507",
    "type": "牛肉麵",
    "city": "台北市",
    "District": "士林區",
    "google_map": "https://maps.app.goo.gl/vPsATYDZxU6DPerv5"
  },
  {
    "name": "燦津 呷滷肉飯米粉湯",
    "lat": 25.072156,
    "lng": 121.5142778,
    "platform": "Facebook",
    "link": "https://www.facebook.com/reel/960792969365906",
    "type": "小吃",
    "city": "台北市",
    "District": "大同區",
    "google_map": "https://maps.app.goo.gl/o6ph2DGJ7pTFSoFJ9"
  },
  {
    "name": "碧溪步道",
    "lat": 25.11388,
    "lng": 121.5808825,
    "platform": "跟著領隊sky玩",
    "link": "https://taiwantour.net/bixi-trail/",
    "type": "健行",
    "city": "台北市",
    "District": "士林區",
    "google_map": "https://maps.app.goo.gl/fQWhyTVEVt23aP5o9"
  },
  {
    "name": "覓糖",
    "lat": 23.924295809692417,
    "lng": 120.54708335661107,
    "platform": "Facebook",
    "link": "https://www.facebook.com/reel/609156901664963",
    "type": "冰品 / 甜點",
    "city": "彰化縣",
    "District": "永靖鄉",
    "google_map": "https://maps.app.goo.gl/eyRGm2eyxtMAWhVeA"
  },
  {
    "name": "寶杏堂",
    "lat": 24.9815251,
    "lng": 121.5604085,
    "platform": "Facebook",
    "link": "https://www.facebook.com/reel/1320605489270689",
    "type": "羊肉",
    "city": "台北市",
    "District": "文山區",
    "google_map": "https://maps.app.goo.gl/KBAKdEtStJcAYHgZ6"
  },
  {
    "name": "蠔鱻生魚片",
    "lat": 25.0796436,
    "lng": 121.4717729,
    "platform": "Facebook",
    "link": "https://www.facebook.com/reel/1831524407643881",
    "type": "生魚片 / 海鮮",
    "city": "新北市",
    "District": "蘆洲區",
    "google_map": "https://maps.app.goo.gl/rqFFMcZwMp7MGigD8"
  },
  {
    "name": "蠔大一口-一中店",
    "lat": 24.1537236,
    "lng": 120.6867358,
    "platform": "Facebook",
    "link": "https://www.facebook.com/reel/1214243020418071",
    "type": "海鮮",
    "city": "台中市",
    "District": "北區",
    "google_map": "https://maps.app.goo.gl/B4tNi2GbnKz5E8teA"
  },
  {
    "name": "新興高中蛋餅",
    "lat": 24.9749897,
    "lng": 121.2721003,
    "platform": "Facebook",
    "link": "https://www.facebook.com/reel/1027896852490470",
    "type": "小吃",
    "city": "桃園市",
    "District": "八德區",
    "google_map": "https://maps.app.goo.gl/Ffb4rxV4goMLszS26"
  },
  {
    "name": "劍潭山步道",
    "lat": 25.0795139,
    "lng": 121.5248216,
    "platform": "Facebook",
    "link": "https://www.facebook.com/reel/1946211369118163",
    "type": "健行",
    "city": "台北市",
    "District": "中山區",
    "google_map": "https://maps.app.goo.gl/FHjKfr2qosnnbsV56"
  },
  {
    "name": "忠誠牛肉麵",
    "lat": 25.1073276,
    "lng": 121.5275642,
    "platform": "Facebook",
    "link": "https://www.facebook.com/reel/1633816963910356",
    "type": "牛肉麵",
    "city": "台北市",
    "District": "士林區",
    "google_map": "https://maps.app.goo.gl/vPsATYDZxU6DPerv5"
  },
  {
    "name": "金蓬萊遵古台菜餐廳",
    "lat": 25.1182996,
    "lng": 121.5362517,
    "platform": "Facebook",
    "link": "https://www.facebook.com/reel/1633816963910356",
    "type": "合菜",
    "city": "台北市",
    "District": "士林區",
    "google_map": "https://maps.app.goo.gl/rxAuBGMSvDXTeNYt8"
  },
  {
    "name": "芝玫蛋糕店",
    "lat": 25.1075897,
    "lng": 121.5276666,
    "platform": "Facebook",
    "link": "https://www.facebook.com/reel/1633816963910356",
    "type": "冰品 / 甜點",
    "city": "台北市",
    "District": "士林區",
    "google_map": "https://maps.app.goo.gl/bGvgW8qtzXv2Uu8i6"
  },
  {
    "name": "吃吃看",
    "lat": 25.1161151,
    "lng": 121.5285924,
    "platform": "Facebook",
    "link": "https://www.facebook.com/reel/1633816963910356",
    "type": "冰品 / 甜點",
    "city": "台北市",
    "District": "士林區",
    "google_map": "https://maps.app.goo.gl/pn2viYnkT7dfXpMg9"
  },
  {
    "name": "忠誠山東蔥油餅",
    "lat": 25.1086609,
    "lng": 121.5248724,
    "platform": "Facebook",
    "link": "https://www.facebook.com/reel/1633816963910356",
    "type": "小吃",
    "city": "台北市",
    "District": "士林區",
    "google_map": "https://maps.app.goo.gl/bntcuLdaFpXhXBsw5"
  },
  {
    "name": "小貨車蔥油餅",
    "lat": 25.1091053,
    "lng": 121.5326403,
    "platform": "Facebook",
    "link": "https://www.facebook.com/reel/1633816963910356",
    "type": "小吃",
    "city": "台北市",
    "District": "士林區",
    "google_map": "https://maps.app.goo.gl/eNcgvZwLZW4ioLVi9"
  },
  {
    "name": "越富越南法國麵包",
    "lat": 25.1071756,
    "lng": 121.5265001,
    "platform": "Facebook",
    "link": "https://www.facebook.com/reel/1633816963910356",
    "type": "小吃",
    "city": "台北市",
    "District": "士林區",
    "google_map": "https://maps.app.goo.gl/LUrqpo3cr9vneiYQ7"
  },
  {
    "name": "全統西點麵包(德行西路店)",
    "lat": 25.10522623654675,
    "lng": 121.52251290951102,
    "platform": "Facebook",
    "link": "https://www.facebook.com/reel/1633816963910356",
    "type": "冰品 / 甜點",
    "city": "台北市",
    "District": "士林區",
    "google_map": "https://maps.app.goo.gl/NMBr4VFkSoFCHgqCA"
  },
  {
    "name": "九樹森林二館",
    "lat": 23.9001743,
    "lng": 120.9770919,
    "platform": "Facebook",
    "link": "https://www.facebook.com/reel/654848110223084",
    "type": "戶外景點",
    "city": "南投縣",
    "District": "魚池鄉",
    "google_map": "https://maps.app.goo.gl/KqgNoJDSH3o8fKu77"
  },
  {
    "name": "抿食屋食堂",
    "lat": 24.9920833,
    "lng": 121.9764208,
    "platform": "Facebook",
    "link": "https://www.facebook.com/reel/1636567260380903",
    "type": "海鮮/甜點",
    "city": "新北市",
    "District": "貢寮區",
    "google_map": "https://maps.app.goo.gl/LwX4crRU7XsoTo337"
  },
  {
    "name": "無名牛排",
    "lat": 25.055014,
    "lng": 121.6160263,
    "platform": "Facebook",
    "link": "https://www.facebook.com/groups/453147798182434/permalink/3002640503233138/",
    "type": "牛排",
    "city": "台北市",
    "District": "南港區",
    "google_map": "https://maps.app.goo.gl/JrJ8oKMRh7riQBdv9"
  },
  {
    "name": "本燔寿喜烧·涮涮鍋",
    "lat": 24.956522,
    "lng": 121.2251531,
    "platform": "Facebook",
    "link": "https://www.facebook.com/reel/515616661574971",
    "type": "火鍋",
    "city": "桃園市",
    "District": "中壢區",
    "google_map": "https://maps.app.goo.gl/F1aXF5mADYy1JwPAA"
  },
  {
    "name": "咕咕咕嚕 日式昆布火鍋 ",
    "lat": 25.0515,
    "lng": 121.616116,
    "platform": "Facebook",
    "link": "https://www.facebook.com/reel/1179757060595925",
    "type": "火鍋",
    "city": "台北市",
    "District": "南港區",
    "google_map": "https://maps.app.goo.gl/zwcRa4wgVc4nKLjU8"
  },
  {
    "name": "麵掌門",
    "lat": 24.966674493995843,
    "lng": 121.30023916911118,
    "platform": "Facebook",
    "link": "https://www.facebook.com/reel/636482388990063",
    "type": "牛肉麵/甜點",
    "city": "桃園市",
    "District": "八德區",
    "google_map": "https://maps.app.goo.gl/zn361ouGNuNQvnFn8"
  },
  {
    "name": "源海南雞飯",
    "lat": 25.0645844,
    "lng": 121.5237162,
    "platform": "Facebook",
    "link": "https://www.facebook.com/reel/1608054843179913",
    "type": "小吃",
    "city": "台北市",
    "District": "中山區",
    "google_map": "https://maps.app.goo.gl/DsHmRMPUBKrG7Mxv9"
  },
  {
    "name": "凱撒披薩",
    "lat": 25.1384462,
    "lng": 121.4874269,
    "platform": "Facebook",
    "link": "https://www.facebook.com/reel/2941877942656155",
    "type": "pizza",
    "city": "台北市",
    "District": "北投區",
    "google_map": "https://maps.app.goo.gl/n56D6V1Ake5pic7N9"
  },
  {
    "name": "大鵬足湯公園",
    "lat": 25.213004,
    "lng": 121.648313,
    "platform": "Facebook",
    "link": "https://www.facebook.com/reel/1876731936397085",
    "type": "健行",
    "city": "新北市",
    "District": "萬里區",
    "google_map": "https://maps.app.goo.gl/9WVauLGjzXKvarjn6"
  },
  {
    "name": "HELLO便當自助餐清粥小菜(倒閉)",
    "lat": 24.9506958,
    "lng": 121.2388766,
    "platform": "Facebook",
    "link": "https://www.facebook.com/reel/641606908469368",
    "type": "小吃",
    "city": "桃園市",
    "District": "中壢區",
    "google_map": "https://maps.app.goo.gl/zkyT6ZQCNqeq9RZU8"
  },
  {
    "name": "淡水第一家招牌羊肉焿",
    "lat": 25.1739616,
    "lng": 121.4512292,
    "platform": "Facebook",
    "link": "https://www.facebook.com/reel/986067493177112",
    "type": "小吃",
    "city": "新北市",
    "District": "淡水區",
    "google_map": "https://maps.app.goo.gl/rgexC8NQU6VcHoU59"
  },
  {
    "name": "張媽媽香大雞排",
    "lat": 24.9922882,
    "lng": 121.5431185,
    "platform": "Facebook",
    "link": "https://www.facebook.com/reel/1629045307734569",
    "type": "小吃",
    "city": "台北市",
    "District": "文山區",
    "google_map": "https://maps.app.goo.gl/SEJ8Ev6TZbcNN9S18"
  },
  {
    "name": "恰恰韓式豬腳",
    "lat": 25.0605843,
    "lng": 121.5435876,
    "platform": "Facebook",
    "link": "https://www.facebook.com/reel/943830084529718",
    "type": "豬腳",
    "city": "台北市",
    "District": "中山區",
    "google_map": "https://maps.app.goo.gl/rLEQGNZ8pnLkcuvw8"
  },
  {
    "name": "葉子祕境森林系Villa",
    "lat": 23.95101,
    "lng": 120.9124951,
    "platform": "Facebook",
    "link": "https://www.facebook.com/reel/558045723888280",
    "type": "戶外景點",
    "city": "南投縣",
    "District": "埔里鎮",
    "google_map": "https://maps.app.goo.gl/euGXkU3FgahLE6Cy5"
  },
  {
    "name": "周家豆腐捲",
    "lat": 25.036381,
    "lng": 121.5600247,
    "platform": "Facebook",
    "link": "https://www.facebook.com/reel/8567579876675518",
    "type": "小吃",
    "city": "台北市",
    "District": "信義區",
    "google_map": "https://maps.app.goo.gl/uXW2gSeWeKke7wrY9"
  },
  {
    "name": "梅子鰻蒲燒專賣店",
    "lat": 25.0501842,
    "lng": 121.5253369,
    "platform": "Facebook",
    "link": "https://www.facebook.com/reel/546393728393248",
    "type": "日料",
    "city": "台北市",
    "District": "中山區",
    "google_map": "https://maps.app.goo.gl/4RdbRR3w65CjvMm77"
  },
  {
    "name": "見晴懷古步道",
    "lat": 24.5051895,
    "lng": 121.5256882,
    "platform": "Facebook",
    "link": "https://www.facebook.com/reel/1136815124688316",
    "type": "健行",
    "city": "宜蘭縣",
    "District": "大同鄉",
    "google_map": "https://maps.app.goo.gl/EPAPQWJSrTb4X8as5"
  },
  {
    "name": "南子吝步道",
    "lat": 25.1201398,
    "lng": 121.887539,
    "platform": "Facebook",
    "link": "https://www.facebook.com/reel/1136815124688316",
    "type": "健行",
    "city": "新北市",
    "District": "瑞芳區",
    "google_map": "https://maps.app.goo.gl/5kJuwK3TJPXTEEXS7"
  },
  {
    "name": "拉拉山神木群步道",
    "lat": 24.710668,
    "lng": 121.4377528,
    "platform": "Facebook",
    "link": "https://www.facebook.com/reel/1136815124688316",
    "type": "健行",
    "city": "桃園市",
    "District": "復興區",
    "google_map": "https://maps.app.goo.gl/nEPHhKSYVAjfksWMA"
  },
  {
    "name": "鶯歌石登山步道",
    "lat": 24.958236,
    "lng": 121.3596331,
    "platform": "Facebook",
    "link": "https://www.facebook.com/reel/1136815124688316",
    "type": "健行",
    "city": "新北市",
    "District": "鶯歌區",
    "google_map": "https://maps.app.goo.gl/RDhq9NxASVNrTK2y6"
  },
  {
    "name": "神仙谷",
    "lat": 24.545852,
    "lng": 121.030458,
    "platform": "Facebook",
    "link": "https://www.facebook.com/reel/1136815124688316",
    "type": "戶外景點",
    "city": "苗栗縣",
    "District": "南庄鄉",
    "google_map": "https://maps.app.goo.gl/DyfACpEF7bKWaqQs6"
  },
  {
    "name": "大坑9號登山步道",
    "lat": 24.1800447,
    "lng": 120.733227,
    "platform": "Facebook",
    "link": "https://www.facebook.com/reel/1136815124688316",
    "type": "健行",
    "city": "台中市",
    "District": "北屯區",
    "google_map": "https://maps.app.goo.gl/Sawp3p5ry93A6Nyk6"
  },
  {
    "name": "新田登山步道",
    "lat": 24.2144184,
    "lng": 120.7379312,
    "platform": "Facebook",
    "link": "https://www.facebook.com/reel/1136815124688316",
    "type": "健行",
    "city": "台中市",
    "District": "潭子區",
    "google_map": "https://maps.app.goo.gl/nMSRgjG2nB45eans6"
  },
  {
    "name": "桃源谷步道內寮線",
    "lat": 24.9712235,
    "lng": 121.8911802,
    "platform": "Facebook",
    "link": "https://www.facebook.com/reel/1136815124688316",
    "type": "健行",
    "city": "新北市",
    "District": "貢寮區",
    "google_map": "https://maps.app.goo.gl/aw3QW385nf6u8jrg8"
  },
  {
    "name": "台中東旅",
    "lat": 24.1404239,
    "lng": 120.68168,
    "platform": "Facebook",
    "link": "https://www.facebook.com/reel/9690067551023503",
    "type": "住宿",
    "city": "台中市",
    "District": "中區",
    "google_map": "https://maps.app.goo.gl/iGzaBcqaosqo4rtB9"
  },
  {
    "name": "木子李",
    "lat": 24.93452766498466,
    "lng": 121.36864896251731,
    "platform": "Facebook",
    "link": "https://www.facebook.com/reel/9318439724861678",
    "type": "小吃",
    "city": "新北市",
    "District": "三峽區",
    "google_map": "https://maps.app.goo.gl/w2omkA1g83KinjqB9"
  },
  {
    "name": "老塘湖藝術村",
    "lat": 23.2191779,
    "lng": 120.2061603,
    "platform": "Facebook",
    "link": "https://www.facebook.com/reel/1338562567314994",
    "type": "戶外景點",
    "city": "台南市",
    "District": "學甲區",
    "google_map": "https://maps.app.goo.gl/q4cn7ii5PbMfLTjD8"
  },
  {
    "name": "萍姐酸菜麵",
    "lat": 25.0460386,
    "lng": 121.5046526,
    "platform": "Facebook",
    "link": "https://www.facebook.com/reel/1718826052180569",
    "type": "小吃",
    "city": "台北市",
    "District": "萬華區",
    "google_map": "https://maps.app.goo.gl/7b3ebTZ18ok5dLFw5"
  },
  {
    "name": "古月香熬粹牛肉麵",
    "lat": 25.1247953,
    "lng": 121.7193912,
    "platform": "Facebook",
    "link": "https://www.facebook.com/reel/652524090598880",
    "type": "牛肉麵",
    "city": "基隆市",
    "District": "安樂區",
    "google_map": "https://maps.app.goo.gl/Qt2ctySkbzZFXvqu9"
  },
  {
    "name": "久千代海鮮百匯餐廳",
    "lat": 24.7500707,
    "lng": 121.7455849,
    "platform": "Facebook",
    "link": "https://www.facebook.com/reel/1010248070979378",
    "type": "buffet",
    "city": "宜蘭縣",
    "District": "宜蘭市",
    "google_map": "https://maps.app.goo.gl/1TkG7eo9ruGcLFtC9"
  },
  {
    "name": "外省牛肉麵",
    "lat": 24.561691,
    "lng": 120.7080446,
    "platform": "Facebook",
    "link": "https://www.facebook.com/reel/672920558497238",
    "type": "牛肉麵",
    "city": "苗栗縣",
    "District": "通霄鎮",
    "google_map": "https://maps.app.goo.gl/rY4nSNpMRnuXt9BP7"
  },
  {
    "name": "鰻天下",
    "lat": 25.1142529,
    "lng": 121.2432571,
    "platform": "Facebook",
    "link": "https://www.facebook.com/reel/674086665283895",
    "type": "海鮮/生魚片",
    "city": "桃園市",
    "District": "大園區",
    "google_map": "https://maps.app.goo.gl/xLLgeC8Tn2eNsvb7A"
  },
  {
    "name": "黑輝伯滷肉飯 ",
    "lat": 25.2048121,
    "lng": 121.4489954,
    "platform": "Facebook",
    "link": "https://www.facebook.com/reel/3598824180415785",
    "type": "小吃",
    "city": "新北市",
    "District": "淡水區",
    "google_map": "https://maps.app.goo.gl/ev5JnWkzxmSoR9Zz8"
  },
  {
    "name": "紅磚園邸",
    "lat": 24.9750072,
    "lng": 121.4196847,
    "platform": "Facebook",
    "link": "https://www.facebook.com/reel/1315533402921151",
    "type": "動物餐廳",
    "city": "新北市",
    "District": "樹林區",
    "google_map": "https://maps.app.goo.gl/SEcfkj1QmnK7E9Np9"
  },
  {
    "name": "食一碗秋香",
    "lat": 24.942314581158833,
    "lng": 121.25171033351292,
    "platform": "Facebook",
    "link": "https://www.facebook.com/reel/2023202211523129",
    "type": "小吃",
    "city": "桃園市",
    "District": "中壢區",
    "google_map": "https://maps.app.goo.gl/NnjAsNy64Vn3v8ev6"
  },
  {
    "name": "小慧涼麵店",
    "lat": 25.0187831,
    "lng": 121.5511605,
    "platform": "Facebook",
    "link": "https://www.facebook.com/reel/1405296897278812",
    "type": "小吃",
    "city": "台北市",
    "District": "大安區",
    "google_map": "https://maps.app.goo.gl/xVU9Rm2RMrFQrYD49"
  },
  {
    "name": "柳川屋麵包店",
    "lat": 24.1472677,
    "lng": 120.6687061,
    "platform": "Facebook",
    "link": "https://www.facebook.com/reel/1797794434409517",
    "type": "冰品 / 甜點",
    "city": "台中市",
    "District": "西區",
    "google_map": "https://maps.app.goo.gl/p7QPS6hLjR5TZ5298"
  },
  {
    "name": "坑口小吃",
    "lat": 25.1336766,
    "lng": 121.8063818,
    "platform": "Facebook",
    "link": "https://www.facebook.com/reel/9401172179996591",
    "type": "小吃",
    "city": "新北市",
    "District": "瑞芳區",
    "google_map": "https://maps.app.goo.gl/dUtC3sVM2h9DMGn69"
  },
  {
    "name": "小旺號",
    "lat": 25.0141655,
    "lng": 121.5341438,
    "platform": "Facebook",
    "link": "https://www.facebook.com/reel/2427191940957054",
    "type": "速食",
    "city": "台北市",
    "District": "中正區",
    "google_map": "https://maps.app.goo.gl/gRbqZNLZv8kSVc4o8"
  },
  {
    "name": "東引小吃店",
    "lat": 25.066838762840273,
    "lng": 121.63084419601512,
    "platform": "Facebook",
    "link": "https://www.facebook.com/reel/627992796609675",
    "type": "小吃",
    "city": "台北市",
    "District": "松山區",
    "google_map": "https://maps.app.goo.gl/KMFouGySe77GJCr5A"
  },
  {
    "name": "Amber日式可麗餅&舒芙蕾工坊",
    "lat": 24.9547188,
    "lng": 121.2428516,
    "platform": "Facebook",
    "link": "https://www.facebook.com/reel/1047699237198958",
    "type": "冰品 / 甜點",
    "city": "桃園市",
    "District": "中壢區",
    "google_map": "https://maps.app.goo.gl/8dgsbgzDLtnpBxD47"
  },
  {
    "name": "猴洞坑瀑布",
    "lat": 24.8434334,
    "lng": 121.7820505,
    "platform": "Facebook",
    "link": "https://www.facebook.com/reel/1147540999991386",
    "type": "戶外景點",
    "city": "宜蘭縣",
    "District": "礁溪鄉",
    "google_map": "https://maps.app.goo.gl/mFKeu52QwCCiPD3s9"
  },
  {
    "name": "樂山溫泉拉麵",
    "lat": 24.8270391,
    "lng": 121.7721991,
    "platform": "Facebook",
    "link": "https://www.facebook.com/reel/1147540999991386",
    "type": "日式",
    "city": "宜蘭縣",
    "District": "礁溪鄉",
    "google_map": "https://maps.app.goo.gl/o9cUVE8kA3xtMSSt6"
  },
  {
    "name": "渭水之丘",
    "lat": 24.8244389,
    "lng": 121.7022625,
    "platform": "Facebook",
    "link": "https://www.facebook.com/reel/1147540999991386",
    "type": "戶外景點",
    "city": "宜蘭縣",
    "District": "礁溪鄉",
    "google_map": "https://maps.app.goo.gl/ccaDqvhYW5wfp2N17"
  },
  {
    "name": "北投地熱谷",
    "lat": 25.137894,
    "lng": 121.5118863,
    "platform": "Facebook",
    "link": "https://www.facebook.com/reel/1658847391507021",
    "type": "戶外景點",
    "city": "台北市",
    "District": "北投區",
    "google_map": "https://maps.app.goo.gl/bttvr9tB9yiCiMXV7"
  },
  {
    "name": "呀屋火鍋·烤串",
    "lat": 25.01166696692279,
    "lng": 121.31920557646477,
    "platform": "Facebook",
    "link": "https://www.facebook.com/reel/517289118089759",
    "type": "火鍋/燒烤",
    "city": "桃園市",
    "District": "桃園區",
    "google_map": "https://maps.app.goo.gl/ivetXTrfTftDTkuW7"
  },
  {
    "name": "環球新北中和店",
    "lat": 25.0066732,
    "lng": 121.4747785,
    "platform": "Facebook",
    "link": "https://www.facebook.com/reel/4835514986672636",
    "type": "室內景點",
    "city": "新北市",
    "District": "中和區",
    "google_map": "https://maps.app.goo.gl/yNvrEqRNP5ZPB6V2A"
  },
  {
    "name": "18度雞",
    "lat": 24.17659923409774,
    "lng": 120.69330899599258,
    "platform": "Facebook",
    "link": "https://www.facebook.com/reel/2073978379695836",
    "type": "宵夜",
    "city": "台中市",
    "District": "北屯區",
    "google_map": "https://maps.app.goo.gl/sLyZv56TPfCxzG4n9"
  },
  {
    "name": "街客咖啡",
    "lat": 23.0082914,
    "lng": 120.2315972,
    "platform": "Facebook",
    "link": "https://www.facebook.com/reel/3417433078565568",
    "type": "咖啡廳",
    "city": "台南市",
    "District": "永康區",
    "google_map": "https://maps.app.goo.gl/DLqSwMEjqACtTqDeA"
  },
  {
    "name": "保家衛國",
    "lat": 22.992041039444004,
    "lng": 120.20951146897409,
    "platform": "Facebook",
    "link": "https://www.facebook.com/reel/1623216535225735",
    "type": "住宿",
    "city": "台南市",
    "District": "中西區",
    "google_map": "https://maps.app.goo.gl/16QjTcUqqrueQ6BN7"
  },
  {
    "name": "Little Ripple 小日波",
    "lat": 25.2401522,
    "lng": 121.6330659,
    "platform": "Facebook",
    "link": "https://www.facebook.com/reel/501903116309295",
    "type": "咖啡廳",
    "city": "新北市",
    "District": "金山區",
    "google_map": "https://maps.app.goo.gl/kYuvxsEsuza3xfZL7"
  },
  {
    "name": "獅頭山公園",
    "lat": 25.2252514,
    "lng": 121.648574,
    "platform": "Facebook",
    "link": "https://www.facebook.com/reel/501903116309295",
    "type": "戶外景點",
    "city": "新北市",
    "District": "金山區",
    "google_map": "https://maps.app.goo.gl/7M1ohUpd9eAu74y98"
  },
  {
    "name": "Amajia阿嬤家咖啡漁村料理",
    "lat": 25.2272342,
    "lng": 121.645575,
    "platform": "Facebook",
    "link": "https://www.facebook.com/reel/501903116309295",
    "type": "咖啡廳",
    "city": "新北市",
    "District": "金山區",
    "google_map": "https://maps.app.goo.gl/LJEe8wz4XrKCzb1y5"
  },
  {
    "name": "神秘海岸",
    "lat": 25.2292262,
    "lng": 121.6531399,
    "platform": "Facebook",
    "link": "你放錯了",
    "type": "戶外景點",
    "city": "新北市",
    "District": "金山區",
    "google_map": "https://maps.app.goo.gl/BhstwPZhaeVFCGLW8"
  },
  {
    "name": "佛手洞",
    "lat": 25.1452252,
    "lng": 121.7479512,
    "platform": "Facebook",
    "link": "https://www.facebook.com/reel/2019099835268712",
    "type": "戶外景點",
    "city": "基隆市",
    "District": "中山區",
    "google_map": "https://maps.app.goo.gl/3vi1acvXVAJs6PQQ8"
  },
  {
    "name": "四川吳抄手-信義店",
    "lat": 25.0370306,
    "lng": 121.5678808,
    "platform": "Facebook",
    "link": "https://www.facebook.com/reel/2900187343490620",
    "type": "小吃",
    "city": "台北市",
    "District": "信義區",
    "google_map": "https://maps.app.goo.gl/5WqjX8azGFgyF5U9A"
  },
  {
    "name": "三坑菜頭滷",
    "lat": 25.1249781,
    "lng": 121.7420032,
    "platform": "Facebook",
    "link": "https://www.facebook.com/reel/1215158200121089",
    "type": "小吃",
    "city": "基隆市",
    "District": "仁愛區",
    "google_map": "https://maps.app.goo.gl/vn7wMaaq3XzAMqvk8"
  },
  {
    "name": "三角窗麵擔",
    "lat": 25.1296216,
    "lng": 121.7388506,
    "platform": "Facebook",
    "link": "https://www.facebook.com/reel/1215158200121089",
    "type": "小吃",
    "city": "基隆市",
    "District": "仁愛區",
    "google_map": "https://maps.app.goo.gl/JSzasTw2JTiP6LxV7"
  },
  {
    "name": "天天鮮排骨飯",
    "lat": 25.1298197,
    "lng": 121.7393137,
    "platform": "Facebook",
    "link": "https://www.facebook.com/reel/1215158200121089",
    "type": "小吃",
    "city": "基隆市",
    "District": "仁愛區",
    "google_map": "https://maps.app.goo.gl/SgotSusPGuD37ZbR9"
  },
  {
    "name": "鳥巢咖啡",
    "lat": 25.1302945,
    "lng": 121.7416128,
    "platform": "Facebook",
    "link": "https://www.facebook.com/reel/1215158200121089",
    "type": "咖啡廳",
    "city": "基隆市",
    "District": "仁爱區",
    "google_map": "https://maps.app.goo.gl/jG3kuvA9sooEBHuE6"
  },
  {
    "name": "曙‧初見咖啡",
    "lat": 25.1279439,
    "lng": 121.7402222,
    "platform": "Facebook",
    "link": "https://www.facebook.com/reel/1215158200121089",
    "type": "咖啡廳",
    "city": "基隆市",
    "District": "仁愛區",
    "google_map": "https://maps.app.goo.gl/zk3HuJe7c6KrvCVw7"
  },
  {
    "name": "十和田鐵板燒餐廳",
    "lat": 25.1202152,
    "lng": 121.5110495,
    "platform": "Facebook",
    "link": "https://www.facebook.com/reel/1325810901746560",
    "type": "鐵板燒",
    "city": "台北市",
    "District": "北投區",
    "google_map": "https://maps.app.goo.gl/TVjSFKsy6s52D4Hr7"
  },
  {
    "name": "滿麵春風",
    "lat": 24.7780692,
    "lng": 121.0760687,
    "platform": "Facebook",
    "link": "https://www.facebook.com/reel/3527947604026427",
    "type": "小吃",
    "city": "新竹縣",
    "District": "芎林鄉",
    "google_map": "https://maps.app.goo.gl/11wa6RY7qv4TLHtj7"
  },
  {
    "name": "泰好吃泰國船麵",
    "lat": 25.0138878,
    "lng": 121.5334094,
    "platform": "Facebook",
    "link": "https://www.facebook.com/reel/1830063807811515",
    "type": "小吃",
    "city": "台北市",
    "District": "中正區",
    "google_map": "https://maps.app.goo.gl/oBCFR2QzxLzCXuh4A"
  },
  {
    "name": "上好雞肉",
    "lat": 25.0049547,
    "lng": 121.4748792,
    "platform": "Facebook",
    "link": "https://www.facebook.com/reel/1134569361649767",
    "type": "小吃",
    "city": "新北市",
    "District": "中和區",
    "google_map": "https://maps.app.goo.gl/cNUufT8Ao6arhK146"
  },
  {
    "name": "海料理海米粉-南崁店",
    "lat": 25.0396026,
    "lng": 121.2880458,
    "platform": "Facebook",
    "link": "https://www.facebook.com/reel/1581266402811918",
    "type": "小吃",
    "city": "桃園市",
    "District": "蘆竹區",
    "google_map": "https://maps.app.goo.gl/KYw34tTFkCURBavh9"
  },
  {
    "name": "酥炸鱈場蟹腳",
    "lat": 25.04862705405005,
    "lng": 121.45827752821789,
    "platform": "Facebook",
    "link": "https://www.facebook.com/reel/1123508518975222",
    "type": "海鮮",
    "city": "新北市",
    "District": "新莊區",
    "google_map": "https://maps.app.goo.gl/k2SwKTia8Mc8zQpe6"
  },
  {
    "name": "小木屋控肉飯(倒閉)",
    "lat": 24.9572025,
    "lng": 121.2225061,
    "platform": "Facebook",
    "link": "https://www.facebook.com/reel/445159008668641",
    "type": "小吃",
    "city": "桃園市",
    "District": "中壢區",
    "google_map": "https://maps.app.goo.gl/xsVmV7R1uF6r9uNw6"
  },
  {
    "name": "絕品饕鍋",
    "lat": 24.2110524,
    "lng": 120.570051,
    "platform": "Facebook",
    "link": "https://www.facebook.com/reel/1660062527915453",
    "type": "火鍋",
    "city": "台中市",
    "District": "沙鹿區",
    "google_map": "https://maps.app.goo.gl/UGdXipJq3aWt6JtF8"
  },
  {
    "name": "這浬咖啡文創所",
    "lat": 24.8740347,
    "lng": 121.8395478,
    "platform": "Facebook",
    "link": "https://www.facebook.com/reel/582341211224315",
    "type": "咖啡廳",
    "city": "宜蘭縣",
    "District": "頭城鎮",
    "google_map": "https://maps.app.goo.gl/EQTwpV2Qr6E77CmAA"
  },
  {
    "name": "掱漁美式手抓海鮮",
    "lat": 22.9816471,
    "lng": 120.1896351,
    "platform": "Facebook",
    "link": "https://www.facebook.com/reel/3933267093609845",
    "type": "海鮮",
    "city": "台南市",
    "District": "南區",
    "google_map": "https://maps.app.goo.gl/HyQpqomxfjBZ1GHj6"
  },
  {
    "name": "太平山",
    "lat": 24.49788380588336,
    "lng": 121.5351341678902,
    "platform": "Facebook",
    "link": "https://www.facebook.com/reel/1286647265880227",
    "type": "健行",
    "city": "宜蘭縣",
    "District": "南澳鄉",
    "google_map": "https://maps.app.goo.gl/Wvfimt2AT3uXTmdV8"
  },
  {
    "name": "Chalet V",
    "lat": 25.0837339,
    "lng": 121.5550552,
    "platform": "Facebook",
    "link": "https://www.facebook.com/reel/2853837574794410",
    "type": "早午餐",
    "city": "台北市",
    "District": "中山區",
    "google_map": "https://maps.app.goo.gl/QqETGNNVayy7S3Aw8"
  },
  {
    "name": "硬派主廚的軟嫩料理",
    "lat": 24.8054975,
    "lng": 120.9691403,
    "platform": "Facebook",
    "link": "https://www.facebook.com/reel/1298566294618329",
    "type": "牛排",
    "city": "新竹市",
    "District": "東區",
    "google_map": "https://maps.app.goo.gl/RS3UVag3fTi6ui2fA"
  },
  {
    "name": "JK STUDIO 歐陸餐廳】",
    "lat": 25.0678947,
    "lng": 121.3646136,
    "platform": "Facebook",
    "link": "https://www.facebook.com/reel/1090692002695592",
    "type": "法式",
    "city": "新北市",
    "District": "林口區",
    "google_map": "https://maps.app.goo.gl/WMouXNB7Sdph3Rn39"
  },
  {
    "name": "阿鴻知高飯小吃店",
    "lat": 25.0367997,
    "lng": 121.4977172,
    "platform": "Facebook",
    "link": "https://www.facebook.com/reel/1085709396587807",
    "type": "小吃",
    "city": "台北市",
    "District": "萬華區",
    "google_map": "https://maps.app.goo.gl/XYYDNhcach5yPtmd9"
  },
  {
    "name": "梨橙溫泉拉麵(倒閉)",
    "lat": 25.0406879,
    "lng": 121.5539068,
    "platform": "Facebook",
    "link": "https://www.facebook.com/reel/1041783070622651",
    "type": "日式",
    "city": "台北市",
    "District": "大安區",
    "google_map": "https://maps.app.goo.gl/8Qji7maixGQhfxMR7"
  },
  {
    "name": "米粉炒豬血湯",
    "lat": 22.62736732967541,
    "lng": 120.35575133045387,
    "platform": "Facebook",
    "link": "https://www.facebook.com/reel/481310911192288",
    "type": "熱炒類",
    "city": "高雄市",
    "District": "鳳山區",
    "google_map": "https://maps.app.goo.gl/Dbe61WGWWbGhWuRJ7"
  },
  {
    "name": "招財咖啡",
    "lat": 24.8069243,
    "lng": 120.9674685,
    "platform": "Facebook",
    "link": "https://www.facebook.com/reel/1153256799294627",
    "type": "咖啡廳",
    "city": "新竹市",
    "District": "北區",
    "google_map": "https://maps.app.goo.gl/sS1iveSDnMx2u28p8"
  },
  {
    "name": "津炙燒烤",
    "lat": 25.0057026,
    "lng": 121.4754513,
    "platform": "Facebook",
    "link": "https://www.facebook.com/reel/1083079263359270",
    "type": "燒烤",
    "city": "新北市",
    "District": "中和區",
    "google_map": "https://maps.app.goo.gl/qySDhuW38npS5UYP8"
  },
  {
    "name": "家家麵食滷味館",
    "lat": 24.8076356,
    "lng": 120.9711387,
    "platform": "Facebook",
    "link": "https://www.facebook.com/reel/893651479611106",
    "type": "小吃",
    "city": "新竹市",
    "District": "東區",
    "google_map": "https://maps.app.goo.gl/TJRv2XfBebzGZ8JM9"
  },
  {
    "name": "連得堂餅家",
    "lat": 23.0004068,
    "lng": 120.2066691,
    "platform": "Facebook",
    "link": "https://www.facebook.com/reel/1101496028032705",
    "type": "冰品 / 甜點",
    "city": "台南市",
    "District": "北區",
    "google_map": "https://maps.app.goo.gl/hKnLnoz9oxj1Lwp59"
  },
  {
    "name": "龜龜毛毛南洋餐室",
    "lat": 22.9949017,
    "lng": 120.2037998,
    "platform": "Facebook",
    "link": "https://www.facebook.com/reel/1101496028032705",
    "type": "泰式",
    "city": "台南市",
    "District": "中西區",
    "google_map": "https://maps.app.goo.gl/NeDLWTWhnH9UV7MC6"
  },
  {
    "name": "Present Coffee",
    "lat": 22.9987121,
    "lng": 120.1995184,
    "platform": "Facebook",
    "link": "https://www.facebook.com/reel/1101496028032705",
    "type": "咖啡廳",
    "city": "台南市",
    "District": "中西區",
    "google_map": "https://maps.app.goo.gl/KTucS2hTXKu9Wn1o9"
  },
  {
    "name": "搖搖冰沙",
    "lat": 22.993446,
    "lng": 120.2931928,
    "platform": "Facebook",
    "link": "https://www.facebook.com/reel/1101496028032705",
    "type": "冰品 / 甜點",
    "city": "台南市",
    "District": "歸仁區",
    "google_map": "https://maps.app.goo.gl/b47r4AmRuFa6Py7p9"
  },
  {
    "name": "金水冷飲部",
    "lat": 23.03489,
    "lng": 120.3080985,
    "platform": "Facebook",
    "link": "https://www.facebook.com/reel/1101496028032705",
    "type": "飲料",
    "city": "台南市",
    "District": "新化區",
    "google_map": "https://maps.app.goo.gl/NXZ42VG1x5VCsGzk6"
  },
  {
    "name": "東園街無名炒飯(倒閉)",
    "lat": 25.0257087,
    "lng": 121.4962359,
    "platform": "Facebook",
    "link": "https://www.facebook.com/reel/2524501831079790",
    "type": "熱炒",
    "city": "台北市",
    "District": "萬華區",
    "google_map": "https://maps.app.goo.gl/YrRZyVC3napJDMhG9"
  },
  {
    "name": "秋菓 ",
    "lat": 24.1697662,
    "lng": 120.6769097,
    "platform": "Facebook",
    "link": "https://www.facebook.com/reel/1481009649955892",
    "type": "冰品 / 甜點",
    "city": "台中市",
    "District": "北區",
    "google_map": "https://maps.app.goo.gl/sT3YHnRMKi7hW4AB9"
  },
  {
    "name": "秦朝老碗麵",
    "lat": 25.0253215,
    "lng": 121.4717617,
    "platform": "Facebook",
    "link": "https://www.facebook.com/reel/1270018370993752",
    "type": "小吃",
    "city": "新北市",
    "District": "板橋區",
    "google_map": "https://maps.app.goo.gl/rdHwFRywc54u4sV68"
  },
  {
    "name": "水連鐵板燒",
    "lat": 25.0135641,
    "lng": 121.4689289,
    "platform": "Facebook",
    "link": "https://www.facebook.com/reel/1270018370993752",
    "type": "鐵板燒",
    "city": "新北市",
    "District": "板橋區",
    "google_map": "https://maps.app.goo.gl/KXYCN4bQdpc5JPcAA"
  },
  {
    "name": "小吉咖哩",
    "lat": 25.0161915,
    "lng": 121.4627018,
    "platform": "Facebook",
    "link": "https://www.facebook.com/reel/1270018370993752",
    "type": "咖啡廳",
    "city": "新北市",
    "District": "板橋區",
    "google_map": "https://maps.app.goo.gl/4pfzKyp13F4DkpwH6"
  },
  {
    "name": "古早味麵茶",
    "lat": 25.0193674,
    "lng": 121.4681698,
    "platform": "Facebook",
    "link": "https://www.facebook.com/reel/1270018370993752",
    "type": "飲料",
    "city": "新北市",
    "District": "板橋區",
    "google_map": "https://maps.app.goo.gl/Bh6XvHhLQBzj5NoX9"
  },
  {
    "name": "瑰季",
    "lat": 25.0217086,
    "lng": 121.4695856,
    "platform": "Facebook",
    "link": "https://www.facebook.com/reel/1270018370993752",
    "type": "冰品 / 甜點",
    "city": "新北市",
    "District": "板橋區",
    "google_map": "https://maps.app.goo.gl/vsj2ccmHiTyCW9si7"
  },
  {
    "name": "陳記鮮魚號",
    "lat": 25.0359546,
    "lng": 121.5005209,
    "platform": "Facebook",
    "link": "https://www.facebook.com/reel/1705005020343587",
    "type": "生魚片 / 海鮮",
    "city": "台北市",
    "District": "萬華區",
    "google_map": "https://maps.app.goo.gl/FxKgYb2z8cMpFitn7"
  },
  {
    "name": "金瑞治水園區",
    "lat": 25.0910515,
    "lng": 121.5828725,
    "platform": "Ettoday旅遊雲",
    "link": "https://reurl.cc/Om7q5D",
    "type": "戶外景點",
    "city": "台北市",
    "District": "內湖區",
    "google_map": "https://maps.app.goo.gl/jGDwFAFCNw6pvdKr5"
  },
  {
    "name": "星夢森林劇場",
    "lat": 24.6807635,
    "lng": 121.7399275,
    "platform": "Facebook",
    "link": "https://www.facebook.com/reel/431413932576381",
    "type": "戶外景點",
    "city": "宜蘭縣",
    "District": "冬山鄉",
    "google_map": "https://maps.app.goo.gl/tEhjukgwXqmPvWaw7"
  },
  {
    "name": "桃園仙境咖啡廳",
    "lat": 24.820143342539797,
    "lng": 121.33912246145442,
    "platform": "Facebook",
    "link": "https://www.facebook.com/reel/1735129670613952",
    "type": "咖啡廳",
    "city": "桃園市",
    "District": "復興區",
    "google_map": "https://maps.app.goo.gl/nWkKA82yzW4mx17Y6"
  },
  {
    "name": "牛室炙燒牛排",
    "lat": 25.01020679768512,
    "lng": 121.45976784703764,
    "platform": "Facebook",
    "link": "https://www.facebook.com/reel/2675362912665737",
    "type": "牛排",
    "city": "新北市",
    "District": "板橋區",
    "google_map": "https://maps.app.goo.gl/S1jYiTwH38k51DYw8"
  },
  {
    "name": "咕咕咕嚕",
    "lat": 25.0515,
    "lng": 121.616116,
    "platform": "Facebook",
    "link": "https://www.facebook.com/reel/3870736836534725",
    "type": "燒烤",
    "city": "台北市",
    "District": "南港區",
    "google_map": "https://maps.app.goo.gl/zwcRa4wgVc4nKLjU8"
  },
  {
    "name": "傑哥冰店 ",
    "lat": 24.6757787,
    "lng": 121.7587442,
    "platform": "Facebook",
    "link": "https://www.facebook.com/reel/2183804022014631",
    "type": "冰品 / 甜點",
    "city": "宜蘭縣",
    "District": "羅東鎮",
    "google_map": "https://maps.app.goo.gl/oJ1DNnccTRg2xNP1A"
  },
  {
    "name": "王記炒飯",
    "lat": 24.6779638,
    "lng": 121.7686856,
    "platform": "Facebook",
    "link": "https://www.facebook.com/reel/2183804022014631",
    "type": "小吃",
    "city": "宜蘭縣",
    "District": "羅東鎮",
    "google_map": "https://maps.app.goo.gl/xXvSRpD7RBJgT5oP6"
  },
  {
    "name": "上讚麵民生店",
    "lat": 24.6781874,
    "lng": 121.76515,
    "platform": "Facebook",
    "link": "https://www.facebook.com/reel/2183804022014631",
    "type": "小吃",
    "city": "宜蘭縣",
    "District": "羅東鎮",
    "google_map": "https://maps.app.goo.gl/mQageXw98MqY1YVy9"
  },
  {
    "name": "小島日和 ",
    "lat": 24.6802781,
    "lng": 121.761564,
    "platform": "Facebook",
    "link": "https://www.facebook.com/reel/2183804022014631",
    "type": "冰品 / 甜點",
    "city": "宜蘭縣",
    "District": "羅東鎮",
    "google_map": "https://maps.app.goo.gl/HkTAoHY64EBWMQYX8"
  },
  {
    "name": "穀王烘焙",
    "lat": 24.68890507328083,
    "lng": 121.7704366855116,
    "platform": "Facebook",
    "link": "https://www.facebook.com/reel/2183804022014631",
    "type": "冰品 / 甜點",
    "city": "宜蘭縣",
    "District": "羅東鎮",
    "google_map": "https://maps.app.goo.gl/k5jChxdY73V1AD168"
  },
  {
    "name": "大樹林滯洪池",
    "lat": 24.975771070002708,
    "lng": 121.31502760950764,
    "platform": "Facebook",
    "link": "https://www.facebook.com/reel/1884310155432818",
    "type": "戶外景點",
    "city": "桃園市",
    "District": "桃園區",
    "google_map": "https://maps.app.goo.gl/BsrQGwM3L13pWrZX7"
  },
  {
    "name": "大湳滯洪池",
    "lat": 24.9567354,
    "lng": 121.3115646,
    "platform": "Facebook",
    "link": "https://www.facebook.com/reel/1884310155432818",
    "type": "戶外景點",
    "city": "桃園市",
    "District": "八德區",
    "google_map": "https://maps.app.goo.gl/PY6oWdecqFyrRFGo6"
  },
  {
    "name": "77巧克力共和國",
    "lat": 24.9417755,
    "lng": 121.2929627,
    "platform": "Facebook",
    "link": "https://www.facebook.com/reel/1884310155432818",
    "type": "室內景點",
    "city": "桃園市",
    "District": "八德區",
    "google_map": "https://maps.app.goo.gl/JKcmuHbDAyhJatjM6"
  }
]